[
  {
    "city": "Casablanca", 
    "lat": "33.5333", 
    "lng": "-7.5833", 
    "country": "Morocco", 
    "iso2": "MA", 
    "admin_name": "Casablanca-Settat", 
    "capital": "admin", 
    "population": "4370000", 
    "population_proper": "3499000"
  }, 
  {
    "city": "El Kelaa des Srarhna", 
    "lat": "32.0481", 
    "lng": "-7.4083", 
    "country": "Morocco", 
    "iso2": "MA", 
    "admin_name": "Marrakech-Safi", 
    "capital": "", 
    "population": "1450021", 
    "population_proper": "51404"
  }, 
  {
    "city": "Fès", 
    "lat": "34.0433", 
    "lng": "-5.0033", 
    "country": "Morocco", 
    "iso2": "MA", 
    "admin_name": "Fès-Meknès", 
    "capital": "admin", 
    "population": "1112072", 
    "population_proper": "1112072"
  }, 
  {
    "city": "Tangier", 
    "lat": "35.7767", 
    "lng": "-5.8039", 
    "country": "Morocco", 
    "iso2": "MA", 
    "admin_name": "Tanger-Tétouan-Al Hoceïma", 
    "capital": "admin", 
    "population": "947952", 
    "population_proper": "947952"
  }, 
  {
    "city": "Marrakech", 
    "lat": "31.6300", 
    "lng": "-8.0089", 
    "country": "Morocco", 
    "iso2": "MA", 
    "admin_name": "Marrakech-Safi", 
    "capital": "admin", 
    "population": "928850", 
    "population_proper": "928850"
  }, 
  {
    "city": "Sale", 
    "lat": "34.0333", 
    "lng": "-6.8000", 
    "country": "Morocco", 
    "iso2": "MA", 
    "admin_name": "Rabat-Salé-Kénitra", 
    "capital": "", 
    "population": "850403", 
    "population_proper": "850403"
  }, 
  {
    "city": "Mediouna", 
    "lat": "33.4500", 
    "lng": "-7.5100", 
    "country": "Morocco", 
    "iso2": "MA", 
    "admin_name": "Casablanca-Settat", 
    "capital": "", 
    "population": "822851", 
    "population_proper": "822851"
  }, 
  {
    "city": "Rabat", 
    "lat": "34.0209", 
    "lng": "-6.8416", 
    "country": "Morocco", 
    "iso2": "MA", 
    "admin_name": "Rabat-Salé-Kénitra", 
    "capital": "primary", 
    "population": "572717", 
    "population_proper": "572717"
  }, 
  {
    "city": "Meknès", 
    "lat": "33.8950", 
    "lng": "-5.5547", 
    "country": "Morocco", 
    "iso2": "MA", 
    "admin_name": "Fès-Meknès", 
    "capital": "", 
    "population": "520428", 
    "population_proper": "520428"
  }, 
  {
    "city": "Oujda-Angad", 
    "lat": "34.6867", 
    "lng": "-1.9114", 
    "country": "Morocco", 
    "iso2": "MA", 
    "admin_name": "Oriental", 
    "capital": "admin", 
    "population": "494252", 
    "population_proper": "494252"
  }, 
  {
    "city": "Kenitra", 
    "lat": "34.2500", 
    "lng": "-6.5833", 
    "country": "Morocco", 
    "iso2": "MA", 
    "admin_name": "Rabat-Salé-Kénitra", 
    "capital": "", 
    "population": "431282", 
    "population_proper": "431282"
  }, 
  {
    "city": "Agadir", 
    "lat": "30.4333", 
    "lng": "-9.6000", 
    "country": "Morocco", 
    "iso2": "MA", 
    "admin_name": "Souss-Massa", 
    "capital": "admin", 
    "population": "421844", 
    "population_proper": "421844"
  }, 
  {
    "city": "Tétouan", 
    "lat": "35.5667", 
    "lng": "-5.3667", 
    "country": "Morocco", 
    "iso2": "MA", 
    "admin_name": "Tanger-Tétouan-Al Hoceïma", 
    "capital": "", 
    "population": "380787", 
    "population_proper": "380787"
  }, 
  {
    "city": "Taourirt", 
    "lat": "34.4169", 
    "lng": "-2.8850", 
    "country": "Morocco", 
    "iso2": "MA", 
    "admin_name": "Oriental", 
    "capital": "", 
    "population": "321876", 
    "population_proper": "321876"
  }, 
  {
    "city": "Temara", 
    "lat": "33.9267", 
    "lng": "-6.9122", 
    "country": "Morocco", 
    "iso2": "MA", 
    "admin_name": "Rabat-Salé-Kénitra", 
    "capital": "", 
    "population": "313510", 
    "population_proper": "313510"
  }, 
  {
    "city": "Safi", 
    "lat": "32.2833", 
    "lng": "-9.2333", 
    "country": "Morocco", 
    "iso2": "MA", 
    "admin_name": "Marrakech-Safi", 
    "capital": "", 
    "population": "308508", 
    "population_proper": "308508"
  }, 
  {
    "city": "Khénifra", 
    "lat": "32.9394", 
    "lng": "-5.6675", 
    "country": "Morocco", 
    "iso2": "MA", 
    "admin_name": "Béni Mellal-Khénifra", 
    "capital": "", 
    "population": "228567", 
    "population_proper": "117510"
  }, 
  {
    "city": "Laâyoune", 
    "lat": "27.1536", 
    "lng": "-13.2033", 
    "country": "Morocco", 
    "iso2": "MA", 
    "admin_name": "Laâyoune-Sakia El Hamra", 
    "capital": "", 
    "population": "217732", 
    "population_proper": "217732"
  }, 
  {
    "city": "Mohammedia", 
    "lat": "33.6833", 
    "lng": "-7.3833", 
    "country": "Morocco", 
    "iso2": "MA", 
    "admin_name": "Casablanca-Settat", 
    "capital": "", 
    "population": "208612", 
    "population_proper": "208612"
  }, 
  {
    "city": "Kouribga", 
    "lat": "32.8833", 
    "lng": "-6.9167", 
    "country": "Morocco", 
    "iso2": "MA", 
    "admin_name": "Béni Mellal-Khénifra", 
    "capital": "", 
    "population": "196196", 
    "population_proper": "196196"
  }, 
  {
    "city": "El Jadid", 
    "lat": "33.2333", 
    "lng": "-8.5000", 
    "country": "Morocco", 
    "iso2": "MA", 
    "admin_name": "Casablanca-Settat", 
    "capital": "", 
    "population": "194934", 
    "population_proper": "194934"
  }, 
  {
    "city": "Béni Mellal", 
    "lat": "32.3394", 
    "lng": "-6.3608", 
    "country": "Morocco", 
    "iso2": "MA", 
    "admin_name": "Béni Mellal-Khénifra", 
    "capital": "admin", 
    "population": "192676", 
    "population_proper": "192676"
  }, 
  {
    "city": "Ait Melloul", 
    "lat": "30.3342", 
    "lng": "-9.4972", 
    "country": "Morocco", 
    "iso2": "MA", 
    "admin_name": "Souss-Massa", 
    "capital": "", 
    "population": "171847", 
    "population_proper": "171847"
  }, 
  {
    "city": "Nador", 
    "lat": "35.1667", 
    "lng": "-2.9333", 
    "country": "Morocco", 
    "iso2": "MA", 
    "admin_name": "Oriental", 
    "capital": "", 
    "population": "161726", 
    "population_proper": "161726"
  }, 
  {
    "city": "Taza", 
    "lat": "34.2167", 
    "lng": "-4.0167", 
    "country": "Morocco", 
    "iso2": "MA", 
    "admin_name": "Fès-Meknès", 
    "capital": "", 
    "population": "148456", 
    "population_proper": "148456"
  }, 
  {
    "city": "Settat", 
    "lat": "33.0000", 
    "lng": "-7.6167", 
    "country": "Morocco", 
    "iso2": "MA", 
    "admin_name": "Casablanca-Settat", 
    "capital": "", 
    "population": "142250", 
    "population_proper": "142250"
  }, 
  {
    "city": "Barrechid", 
    "lat": "33.2667", 
    "lng": "-7.5833", 
    "country": "Morocco", 
    "iso2": "MA", 
    "admin_name": "Casablanca-Settat", 
    "capital": "", 
    "population": "136634", 
    "population_proper": "136634"
  }, 
  {
    "city": "Al Khmissat", 
    "lat": "33.8167", 
    "lng": "-6.0667", 
    "country": "Morocco", 
    "iso2": "MA", 
    "admin_name": "Rabat-Salé-Kénitra", 
    "capital": "", 
    "population": "131542", 
    "population_proper": "131542"
  }, 
  {
    "city": "Inezgane", 
    "lat": "30.3658", 
    "lng": "-9.5381", 
    "country": "Morocco", 
    "iso2": "MA", 
    "admin_name": "Souss-Massa", 
    "capital": "", 
    "population": "130333", 
    "population_proper": "130333"
  }, 
  {
    "city": "Ksar El Kebir", 
    "lat": "35.0090", 
    "lng": "-5.9000", 
    "country": "Morocco", 
    "iso2": "MA", 
    "admin_name": "Tanger-Tétouan-Al Hoceïma", 
    "capital": "", 
    "population": "126617", 
    "population_proper": "126617"
  }, 
  {
    "city": "Larache", 
    "lat": "35.1833", 
    "lng": "-6.1500", 
    "country": "Morocco", 
    "iso2": "MA", 
    "admin_name": "Tanger-Tétouan-Al Hoceïma", 
    "capital": "", 
    "population": "125008", 
    "population_proper": "125008"
  }, 
  {
    "city": "Guelmim", 
    "lat": "28.9833", 
    "lng": "-10.0667", 
    "country": "Morocco", 
    "iso2": "MA", 
    "admin_name": "Guelmim-Oued Noun", 
    "capital": "admin", 
    "population": "118318", 
    "population_proper": "118318"
  }, 
  {
    "city": "Berkane", 
    "lat": "34.9167", 
    "lng": "-2.3167", 
    "country": "Morocco", 
    "iso2": "MA", 
    "admin_name": "Oriental", 
    "capital": "", 
    "population": "109237", 
    "population_proper": "109237"
  }, 
  {
    "city": "Khemis Sahel", 
    "lat": "35.2500", 
    "lng": "-6.0833", 
    "country": "Morocco", 
    "iso2": "MA", 
    "admin_name": "Tanger-Tétouan-Al Hoceïma", 
    "capital": "", 
    "population": "107371", 
    "population_proper": "107371"
  }, 
  {
    "city": "Ad Dakhla", 
    "lat": "23.7081", 
    "lng": "-15.9456", 
    "country": "Morocco", 
    "iso2": "MA", 
    "admin_name": "Dakhla-Oued Ed-Dahab", 
    "capital": "", 
    "population": "106277", 
    "population_proper": "106277"
  }, 
  {
    "city": "Bouskoura", 
    "lat": "33.4489", 
    "lng": "-7.6486", 
    "country": "Morocco", 
    "iso2": "MA", 
    "admin_name": "Casablanca-Settat", 
    "capital": "", 
    "population": "103026", 
    "population_proper": "103026"
  }, 
  {
    "city": "Al Fqih Ben Çalah", 
    "lat": "32.5000", 
    "lng": "-6.5333", 
    "country": "Morocco", 
    "iso2": "MA", 
    "admin_name": "Béni Mellal-Khénifra", 
    "capital": "", 
    "population": "102019", 
    "population_proper": "102019"
  }, 
  {
    "city": "Oued Zem", 
    "lat": "32.8667", 
    "lng": "-6.5667", 
    "country": "Morocco", 
    "iso2": "MA", 
    "admin_name": "Béni Mellal-Khénifra", 
    "capital": "", 
    "population": "95267", 
    "population_proper": "95267"
  }, 
  {
    "city": "Sidi Slimane", 
    "lat": "34.2600", 
    "lng": "-5.9200", 
    "country": "Morocco", 
    "iso2": "MA", 
    "admin_name": "Rabat-Salé-Kénitra", 
    "capital": "", 
    "population": "92989", 
    "population_proper": "92989"
  }, 
  {
    "city": "Errachidia", 
    "lat": "31.9319", 
    "lng": "-4.4244", 
    "country": "Morocco", 
    "iso2": "MA", 
    "admin_name": "Drâa-Tafilalet", 
    "capital": "admin", 
    "population": "92374", 
    "population_proper": "92374"
  }, 
  {
    "city": "Guercif", 
    "lat": "34.2333", 
    "lng": "-3.3667", 
    "country": "Morocco", 
    "iso2": "MA", 
    "admin_name": "Oriental", 
    "capital": "", 
    "population": "90880", 
    "population_proper": "90880"
  }, 
  {
    "city": "Oulad Teïma", 
    "lat": "30.4000", 
    "lng": "-9.2167", 
    "country": "Morocco", 
    "iso2": "MA", 
    "admin_name": "Souss-Massa", 
    "capital": "", 
    "population": "89387", 
    "population_proper": "89387"
  }, 
  {
    "city": "Ben Guerir", 
    "lat": "32.2300", 
    "lng": "-7.9500", 
    "country": "Morocco", 
    "iso2": "MA", 
    "admin_name": "Marrakech-Safi", 
    "capital": "", 
    "population": "88626", 
    "population_proper": "88626"
  }, 
  {
    "city": "Sefrou", 
    "lat": "33.8300", 
    "lng": "-4.8300", 
    "country": "Morocco", 
    "iso2": "MA", 
    "admin_name": "Fès-Meknès", 
    "capital": "", 
    "population": "79887", 
    "population_proper": "79887"
  }, 
  {
    "city": "Fnidq", 
    "lat": "35.8500", 
    "lng": "-5.3500", 
    "country": "Morocco", 
    "iso2": "MA", 
    "admin_name": "Tanger-Tétouan-Al Hoceïma", 
    "capital": "", 
    "population": "77436", 
    "population_proper": "77436"
  }, 
  {
    "city": "Sidi Qacem", 
    "lat": "34.2167", 
    "lng": "-5.7000", 
    "country": "Morocco", 
    "iso2": "MA", 
    "admin_name": "Rabat-Salé-Kénitra", 
    "capital": "", 
    "population": "75672", 
    "population_proper": "75672"
  }, 
  {
    "city": "Moulay Abdallah", 
    "lat": "33.1978", 
    "lng": "-8.5883", 
    "country": "Morocco", 
    "iso2": "MA", 
    "admin_name": "Casablanca-Settat", 
    "capital": "", 
    "population": "74671", 
    "population_proper": "74671"
  }, 
  {
    "city": "Youssoufia", 
    "lat": "32.2500", 
    "lng": "-8.5333", 
    "country": "Morocco", 
    "iso2": "MA", 
    "admin_name": "Marrakech-Safi", 
    "capital": "", 
    "population": "67628", 
    "population_proper": "67628"
  }, 
  {
    "city": "Martil", 
    "lat": "35.6167", 
    "lng": "-5.2667", 
    "country": "Morocco", 
    "iso2": "MA", 
    "admin_name": "Tanger-Tétouan-Al Hoceïma", 
    "capital": "", 
    "population": "64355", 
    "population_proper": "64355"
  }, 
  {
    "city": "Aïn Harrouda", 
    "lat": "33.6372", 
    "lng": "-7.4483", 
    "country": "Morocco", 
    "iso2": "MA", 
    "admin_name": "Casablanca-Settat", 
    "capital": "", 
    "population": "62420", 
    "population_proper": "62420"
  }, 
  {
    "city": "Skhirate", 
    "lat": "33.8500", 
    "lng": "-7.0300", 
    "country": "Morocco", 
    "iso2": "MA", 
    "admin_name": "Rabat-Salé-Kénitra", 
    "capital": "", 
    "population": "59775", 
    "population_proper": "59775"
  }, 
  {
    "city": "Ouezzane", 
    "lat": "34.8000", 
    "lng": "-5.5833", 
    "country": "Morocco", 
    "iso2": "MA", 
    "admin_name": "Tanger-Tétouan-Al Hoceïma", 
    "capital": "", 
    "population": "59606", 
    "population_proper": "59606"
  }, 
  {
    "city": "Sidi Yahya Zaer", 
    "lat": "33.7105", 
    "lng": "-6.8831", 
    "country": "Morocco", 
    "iso2": "MA", 
    "admin_name": "Rabat-Salé-Kénitra", 
    "capital": "", 
    "population": "57790", 
    "population_proper": "57790"
  }, 
  {
    "city": "Al Hoceïma", 
    "lat": "35.2472", 
    "lng": "-3.9322", 
    "country": "Morocco", 
    "iso2": "MA", 
    "admin_name": "Tanger-Tétouan-Al Hoceïma", 
    "capital": "", 
    "population": "56716", 
    "population_proper": "56716"
  }, 
  {
    "city": "M’diq", 
    "lat": "35.6858", 
    "lng": "-5.3253", 
    "country": "Morocco", 
    "iso2": "MA", 
    "admin_name": "Tanger-Tétouan-Al Hoceïma", 
    "capital": "", 
    "population": "56227", 
    "population_proper": "56227"
  }, 
  {
    "city": "Sidi Bennour", 
    "lat": "32.6500", 
    "lng": "-8.4333", 
    "country": "Morocco", 
    "iso2": "MA", 
    "admin_name": "Casablanca-Settat", 
    "capital": "", 
    "population": "55815", 
    "population_proper": "55815"
  }, 
  {
    "city": "Midalt", 
    "lat": "32.6800", 
    "lng": "-4.7300", 
    "country": "Morocco", 
    "iso2": "MA", 
    "admin_name": "Drâa-Tafilalet", 
    "capital": "", 
    "population": "55304", 
    "population_proper": "55304"
  }, 
  {
    "city": "Azrou", 
    "lat": "33.4417", 
    "lng": "-5.2247", 
    "country": "Morocco", 
    "iso2": "MA", 
    "admin_name": "Fès-Meknès", 
    "capital": "", 
    "population": "54350", 
    "population_proper": "54350"
  }, 
  {
    "city": "My Drarga", 
    "lat": "30.3800", 
    "lng": "-9.4800", 
    "country": "Morocco", 
    "iso2": "MA", 
    "admin_name": "Souss-Massa", 
    "capital": "", 
    "population": "50946", 
    "population_proper": "50946"
  }, 
  {
    "city": "Ain El Aouda", 
    "lat": "33.8111", 
    "lng": "-6.7922", 
    "country": "Morocco", 
    "iso2": "MA", 
    "admin_name": "Rabat-Salé-Kénitra", 
    "capital": "", 
    "population": "49816", 
    "population_proper": "49816"
  }, 
  {
    "city": "Beni Yakhlef", 
    "lat": "33.6555", 
    "lng": "-7.3221", 
    "country": "Morocco", 
    "iso2": "MA", 
    "admin_name": "Casablanca-Settat", 
    "capital": "", 
    "population": "48338", 
    "population_proper": "48338"
  }, 
  {
    "city": "Ad Darwa", 
    "lat": "33.4167", 
    "lng": "-7.5333", 
    "country": "Morocco", 
    "iso2": "MA", 
    "admin_name": "Casablanca-Settat", 
    "capital": "", 
    "population": "47719", 
    "population_proper": "47719"
  }, 
  {
    "city": "Al Aaroui", 
    "lat": "35.0029", 
    "lng": "-3.0311", 
    "country": "Morocco", 
    "iso2": "MA", 
    "admin_name": "Oriental", 
    "capital": "", 
    "population": "47599", 
    "population_proper": "47599"
  }, 
  {
    "city": "Qasbat Tadla", 
    "lat": "32.6000", 
    "lng": "-6.2667", 
    "country": "Morocco", 
    "iso2": "MA", 
    "admin_name": "Béni Mellal-Khénifra", 
    "capital": "", 
    "population": "47343", 
    "population_proper": "47343"
  }, 
  {
    "city": "Boujad", 
    "lat": "32.7667", 
    "lng": "-6.4000", 
    "country": "Morocco", 
    "iso2": "MA", 
    "admin_name": "Béni Mellal-Khénifra", 
    "capital": "", 
    "population": "46893", 
    "population_proper": "46893"
  }, 
  {
    "city": "Jerada", 
    "lat": "34.3117", 
    "lng": "-2.1636", 
    "country": "Morocco", 
    "iso2": "MA", 
    "admin_name": "Oriental", 
    "capital": "", 
    "population": "43506", 
    "population_proper": "43506"
  }, 
  {
    "city": "Mrirt", 
    "lat": "33.1667", 
    "lng": "-5.5667", 
    "country": "Morocco", 
    "iso2": "MA", 
    "admin_name": "Béni Mellal-Khénifra", 
    "capital": "", 
    "population": "42730", 
    "population_proper": "42730"
  }, 
  {
    "city": "El Aïoun", 
    "lat": "34.5852", 
    "lng": "-2.5056", 
    "country": "Morocco", 
    "iso2": "MA", 
    "admin_name": "Oriental", 
    "capital": "", 
    "population": "41832", 
    "population_proper": "41832"
  }, 
  {
    "city": "Azemmour", 
    "lat": "33.2878", 
    "lng": "-8.3422", 
    "country": "Morocco", 
    "iso2": "MA", 
    "admin_name": "Casablanca-Settat", 
    "capital": "", 
    "population": "40920", 
    "population_proper": "40920"
  }, 
  {
    "city": "Temsia", 
    "lat": "30.3600", 
    "lng": "-9.4140", 
    "country": "Morocco", 
    "iso2": "MA", 
    "admin_name": "Souss-Massa", 
    "capital": "", 
    "population": "40780", 
    "population_proper": "40780"
  }, 
  {
    "city": "Zagora", 
    "lat": "30.3306", 
    "lng": "-5.8381", 
    "country": "Morocco", 
    "iso2": "MA", 
    "admin_name": "Drâa-Tafilalet", 
    "capital": "", 
    "population": "40067", 
    "population_proper": "40067"
  }, 
  {
    "city": "Ait Ourir", 
    "lat": "31.5644", 
    "lng": "-7.6628", 
    "country": "Morocco", 
    "iso2": "MA", 
    "admin_name": "Marrakech-Safi", 
    "capital": "", 
    "population": "39108", 
    "population_proper": "39108"
  }, 
  {
    "city": "Aziylal", 
    "lat": "31.9669", 
    "lng": "-6.5694", 
    "country": "Morocco", 
    "iso2": "MA", 
    "admin_name": "Béni Mellal-Khénifra", 
    "capital": "", 
    "population": "38520", 
    "population_proper": "38520"
  }, 
  {
    "city": "Sidi Yahia El Gharb", 
    "lat": "34.3058", 
    "lng": "-6.3058", 
    "country": "Morocco", 
    "iso2": "MA", 
    "admin_name": "Rabat-Salé-Kénitra", 
    "capital": "", 
    "population": "37979", 
    "population_proper": "37979"
  }, 
  {
    "city": "Biougra", 
    "lat": "30.2144", 
    "lng": "-9.3708", 
    "country": "Morocco", 
    "iso2": "MA", 
    "admin_name": "Souss-Massa", 
    "capital": "", 
    "population": "37933", 
    "population_proper": "37933"
  }, 
  {
    "city": "Zaïo", 
    "lat": "34.9333", 
    "lng": "-2.7333", 
    "country": "Morocco", 
    "iso2": "MA", 
    "admin_name": "Oriental", 
    "capital": "", 
    "population": "35806", 
    "population_proper": "35806"
  }, 
  {
    "city": "Aguelmous", 
    "lat": "33.1500", 
    "lng": "-5.8333", 
    "country": "Morocco", 
    "iso2": "MA", 
    "admin_name": "Béni Mellal-Khénifra", 
    "capital": "", 
    "population": "35626", 
    "population_proper": "35626"
  }, 
  {
    "city": "El Hajeb", 
    "lat": "33.6928", 
    "lng": "-5.3711", 
    "country": "Morocco", 
    "iso2": "MA", 
    "admin_name": "Fès-Meknès", 
    "capital": "", 
    "population": "35282", 
    "population_proper": "35282"
  }, 
  {
    "city": "Zeghanghane", 
    "lat": "35.1500", 
    "lng": "-3.0000", 
    "country": "Morocco", 
    "iso2": "MA", 
    "admin_name": "Oriental", 
    "capital": "", 
    "population": "34025", 
    "population_proper": "34025"
  }, 
  {
    "city": "Imzouren", 
    "lat": "35.1500", 
    "lng": "-3.8500", 
    "country": "Morocco", 
    "iso2": "MA", 
    "admin_name": "Tanger-Tétouan-Al Hoceïma", 
    "capital": "", 
    "population": "33852", 
    "population_proper": "33852"
  }, 
  {
    "city": "Tit Mellil", 
    "lat": "33.5533", 
    "lng": "-7.4822", 
    "country": "Morocco", 
    "iso2": "MA", 
    "admin_name": "Casablanca-Settat", 
    "capital": "", 
    "population": "32782", 
    "population_proper": "32782"
  }, 
  {
    "city": "Mechraa Bel Ksiri", 
    "lat": "34.5600", 
    "lng": "-5.9500", 
    "country": "Morocco", 
    "iso2": "MA", 
    "admin_name": "Rabat-Salé-Kénitra", 
    "capital": "", 
    "population": "31497", 
    "population_proper": "31497"
  }, 
  {
    "city": "Al ’Attawia", 
    "lat": "31.8347", 
    "lng": "-7.3125", 
    "country": "Morocco", 
    "iso2": "MA", 
    "admin_name": "Marrakech-Safi", 
    "capital": "", 
    "population": "30315", 
    "population_proper": "30315"
  }, 
  {
    "city": "Demnat", 
    "lat": "31.7311", 
    "lng": "-7.0361", 
    "country": "Morocco", 
    "iso2": "MA", 
    "admin_name": "Béni Mellal-Khénifra", 
    "capital": "", 
    "population": "29504", 
    "population_proper": "29504"
  }, 
  {
    "city": "Arfoud", 
    "lat": "31.4361", 
    "lng": "-4.2328", 
    "country": "Morocco", 
    "iso2": "MA", 
    "admin_name": "Drâa-Tafilalet", 
    "capital": "", 
    "population": "29279", 
    "population_proper": "29279"
  }, 
  {
    "city": "Tameslouht", 
    "lat": "31.5000", 
    "lng": "-8.1000", 
    "country": "Morocco", 
    "iso2": "MA", 
    "admin_name": "Marrakech-Safi", 
    "capital": "", 
    "population": "28978", 
    "population_proper": "28978"
  }, 
  {
    "city": "Bou Arfa", 
    "lat": "32.5309", 
    "lng": "-1.9650", 
    "country": "Morocco", 
    "iso2": "MA", 
    "admin_name": "Oriental", 
    "capital": "", 
    "population": "28846", 
    "population_proper": "28846"
  }, 
  {
    "city": "Sidi Smai’il", 
    "lat": "32.8167", 
    "lng": "-8.5000", 
    "country": "Morocco", 
    "iso2": "MA", 
    "admin_name": "Casablanca-Settat", 
    "capital": "", 
    "population": "28733", 
    "population_proper": "28733"
  }, 
  {
    "city": "Souk et Tnine Jorf el Mellah", 
    "lat": "34.4833", 
    "lng": "-5.5169", 
    "country": "Morocco", 
    "iso2": "MA", 
    "admin_name": "Rabat-Salé-Kénitra", 
    "capital": "", 
    "population": "28681", 
    "population_proper": "28681"
  }, 
  {
    "city": "Mehdya", 
    "lat": "34.2597", 
    "lng": "-6.6500", 
    "country": "Morocco", 
    "iso2": "MA", 
    "admin_name": "Rabat-Salé-Kénitra", 
    "capital": "", 
    "population": "28636", 
    "population_proper": "28636"
  }, 
  {
    "city": "Aïn Taoujdat", 
    "lat": "33.9333", 
    "lng": "-5.2167", 
    "country": "Morocco", 
    "iso2": "MA", 
    "admin_name": "Fès-Meknès", 
    "capital": "", 
    "population": "28288", 
    "population_proper": "28288"
  }, 
  {
    "city": "Chichaoua", 
    "lat": "31.5333", 
    "lng": "-8.7667", 
    "country": "Morocco", 
    "iso2": "MA", 
    "admin_name": "Marrakech-Safi", 
    "capital": "", 
    "population": "27869", 
    "population_proper": "27869"
  }, 
  {
    "city": "Tahla", 
    "lat": "34.0500", 
    "lng": "-4.4200", 
    "country": "Morocco", 
    "iso2": "MA", 
    "admin_name": "Fès-Meknès", 
    "capital": "", 
    "population": "27729", 
    "population_proper": "27729"
  }, 
  {
    "city": "Oulad Yaïch", 
    "lat": "32.4167", 
    "lng": "-6.3333", 
    "country": "Morocco", 
    "iso2": "MA", 
    "admin_name": "Béni Mellal-Khénifra", 
    "capital": "", 
    "population": "27476", 
    "population_proper": "27476"
  }, 
  {
    "city": "Moulay Bousselham", 
    "lat": "34.8786", 
    "lng": "-6.2933", 
    "country": "Morocco", 
    "iso2": "MA", 
    "admin_name": "Rabat-Salé-Kénitra", 
    "capital": "", 
    "population": "26608", 
    "population_proper": "26608"
  }, 
  {
    "city": "Iheddadene", 
    "lat": "35.1500", 
    "lng": "-2.9667", 
    "country": "Morocco", 
    "iso2": "MA", 
    "admin_name": "Oriental", 
    "capital": "", 
    "population": "26582", 
    "population_proper": "26582"
  }, 
  {
    "city": "Missour", 
    "lat": "33.0500", 
    "lng": "-3.9833", 
    "country": "Morocco", 
    "iso2": "MA", 
    "admin_name": "Fès-Meknès", 
    "capital": "", 
    "population": "25584", 
    "population_proper": "25584"
  }, 
  {
    "city": "Zawyat ech Cheïkh", 
    "lat": "32.6414", 
    "lng": "-5.9206", 
    "country": "Morocco", 
    "iso2": "MA", 
    "admin_name": "Béni Mellal-Khénifra", 
    "capital": "", 
    "population": "25388", 
    "population_proper": "25388"
  }, 
  {
    "city": "Bouknadel", 
    "lat": "34.1333", 
    "lng": "-6.7333", 
    "country": "Morocco", 
    "iso2": "MA", 
    "admin_name": "Rabat-Salé-Kénitra", 
    "capital": "", 
    "population": "25255", 
    "population_proper": "25255"
  }, 
  {
    "city": "Oulad Tayeb", 
    "lat": "33.9598", 
    "lng": "-4.9954", 
    "country": "Morocco", 
    "iso2": "MA", 
    "admin_name": "Fès-Meknès", 
    "capital": "", 
    "population": "24594", 
    "population_proper": "24594"
  }, 
  {
    "city": "Oulad Barhil", 
    "lat": "30.6408", 
    "lng": "-8.4750", 
    "country": "Morocco", 
    "iso2": "MA", 
    "admin_name": "Souss-Massa", 
    "capital": "", 
    "population": "24288", 
    "population_proper": "24288"
  }, 
  {
    "city": "Bir Jdid", 
    "lat": "33.3737", 
    "lng": "-8.0002", 
    "country": "Morocco", 
    "iso2": "MA", 
    "admin_name": "Casablanca-Settat", 
    "capital": "", 
    "population": "24136", 
    "population_proper": "24136"
  }, 
  {
    "city": "Tifariti", 
    "lat": "26.1580", 
    "lng": "-10.5670", 
    "country": "Morocco", 
    "iso2": "MA", 
    "admin_name": "Laâyoune-Sakia El Hamra", 
    "capital": "primary", 
    "population": "3000", 
    "population_proper": "3000"
  }
]